header: 
  seq: 4
  stamp: 
    secs: 1620837148
    nsecs: 572634713
  frame_id: "base_link"
status: 
  status: 0
  service: 1
latitude: 59.8691375
longitude: 30.3008307
altitude: 25.2849085104
position_covariance: [0.568516, 0.0, 0.0, 0.0, 0.568516, 0.0, 0.0, 0.0, 1.373584]
position_covariance_type: 2
---
header: 
  seq: 5
  stamp: 
    secs: 1620837149
    nsecs: 492239873
  frame_id: "base_link"
status: 
  status: 0
  service: 1
latitude: 59.8691371
longitude: 30.3008299
altitude: 25.3649087912
position_covariance: [0.568516, 0.0, 0.0, 0.0, 0.568516, 0.0, 0.0, 0.0, 1.3688999999999998]
position_covariance_type: 2
---
header: 
  seq: 6
  stamp: 
    secs: 1620837150
    nsecs:  67129038
  frame_id: "base_link"
status: 
  status: 0
  service: 1
latitude: 59.869137
longitude: 30.3008296
altitude: 25.354908878
position_covariance: [0.568516, 0.0, 0.0, 0.0, 0.568516, 0.0, 0.0, 0.0, 1.3688999999999998]
position_covariance_type: 2
---
header: 
  seq: 7
  stamp: 
    secs: 1620837150
    nsecs: 641526753
  frame_id: "base_link"
status: 
  status: 0
  service: 1
latitude: 59.8691369
longitude: 30.3008291
altitude: 25.3249089978
position_covariance: [0.567009, 0.0, 0.0, 0.0, 0.567009, 0.0, 0.0, 0.0, 1.3548959999999999]
position_covariance_type: 2
---
header: 
  seq: 8
  stamp: 
    secs: 1620837150
    nsecs: 985966496
  frame_id: "base_link"
status: 
  status: 0
  service: 1
latitude: 59.8691366
longitude: 30.3008282
altitude: 25.304909258
position_covariance: [0.567009, 0.0, 0.0, 0.0, 0.567009, 0.0, 0.0, 0.0, 1.3548959999999999]
position_covariance_type: 2
---
header: 
  seq: 9
  stamp: 
    secs: 1620837151
    nsecs: 445310554
  frame_id: "base_link"
status: 
  status: 0
  service: 1
latitude: 59.8691363
longitude: 30.3008274
altitude: 25.2949095017
position_covariance: [0.567009, 0.0, 0.0, 0.0, 0.567009, 0.0, 0.0, 0.0, 1.3548959999999999]
position_covariance_type: 2
---
header: 
  seq: 10
  stamp: 
    secs: 1620837151
    nsecs: 822193746
  frame_id: "base_link"
status: 
  status: 0
  service: 1
latitude: 59.8691362
longitude: 30.300827
altitude: 25.344909605
position_covariance: [0.567009, 0.0, 0.0, 0.0, 0.567009, 0.0, 0.0, 0.0, 1.3548959999999999]
position_covariance_type: 2
---
header: 
  seq: 11
  stamp: 
    secs: 1620837152
    nsecs: 492421089
  frame_id: "base_link"
status: 
  status: 0
  service: 1
latitude: 59.869136
longitude: 30.3008264
altitude: 25.3549097784
position_covariance: [0.567009, 0.0, 0.0, 0.0, 0.567009, 0.0, 0.0, 0.0, 1.3456]
position_covariance_type: 2
---
header: 
  seq: 12
  stamp: 
    secs: 1620837152
    nsecs: 858074331
  frame_id: "base_link"
status: 
  status: 0
  service: 1
latitude: 59.8691357
longitude: 30.3008255
altitude: 25.3649100387
position_covariance: [0.567009, 0.0, 0.0, 0.0, 0.567009, 0.0, 0.0, 0.0, 1.3456]
position_covariance_type: 2
---
header: 
  seq: 13
  stamp: 
    secs: 1620837153
    nsecs: 285347708
  frame_id: "base_link"
status: 
  status: 0
  service: 1
latitude: 59.8691355
longitude: 30.3008244
altitude: 25.3849102948
position_covariance: [0.567009, 0.0, 0.0, 0.0, 0.567009, 0.0, 0.0, 0.0, 1.3456]
position_covariance_type: 2
---
header: 
  seq: 14
  stamp: 
    secs: 1620837154
    nsecs: 162562661
  frame_id: "base_link"
status: 
  status: 0
  service: 1
latitude: 59.8691352
longitude: 30.3008236
altitude: 25.4049105385
position_covariance: [0.565504, 0.0, 0.0, 0.0, 0.565504, 0.0, 0.0, 0.0, 1.338649]
position_covariance_type: 2
---
header: 
  seq: 15
  stamp: 
    secs: 1620837155
    nsecs:  81306845
  frame_id: "base_link"
status: 
  status: 0
  service: 1
latitude: 59.869135
longitude: 30.3008223
altitude: 25.4149108276
position_covariance: [0.565504, 0.0, 0.0, 0.0, 0.565504, 0.0, 0.0, 0.0, 1.338649]
position_covariance_type: 2
---
header: 
  seq: 16
  stamp: 
    secs: 1620837155
    nsecs: 384693678
  frame_id: "base_link"
status: 
  status: 0
  service: 1
latitude: 59.8691348
longitude: 30.3008216
altitude: 25.4249110176
position_covariance: [0.565504, 0.0, 0.0, 0.0, 0.565504, 0.0, 0.0, 0.0, 1.331716]
position_covariance_type: 2
---
header: 
  seq: 17
  stamp: 
    secs: 1620837156
    nsecs: 871125746
  frame_id: "base_link"
status: 
  status: 0
  service: 1
latitude: 59.8691344
longitude: 30.3008197
altitude: 25.4249114803
position_covariance: [0.561001, 0.0, 0.0, 0.0, 0.561001, 0.0, 0.0, 0.0, 1.315609]
position_covariance_type: 2
---
header: 
  seq: 18
  stamp: 
    secs: 1620837157
    nsecs: 450676671
  frame_id: "base_link"
status: 
  status: 0
  service: 1
latitude: 59.8691343
longitude: 30.3008189
altitude: 25.3949116497
position_covariance: [0.561001, 0.0, 0.0, 0.0, 0.561001, 0.0, 0.0, 0.0, 1.315609]
position_covariance_type: 2
---
header: 
  seq: 19
  stamp: 
    secs: 1620837158
    nsecs: 526662550
  frame_id: "base_link"
status: 
  status: 0
  service: 1
latitude: 59.869134
longitude: 30.3008173
altitude: 25.3349120256
position_covariance: [0.541696, 0.0, 0.0, 0.0, 0.541696, 0.0, 0.0, 0.0, 1.270129]
position_covariance_type: 2
---
header: 
  seq: 20
  stamp: 
    secs: 1620837158
    nsecs: 851851174
  frame_id: "base_link"
status: 
  status: 0
  service: 1
latitude: 59.8691337
longitude: 30.3008163
altitude: 25.3349123023
position_covariance: [0.541696, 0.0, 0.0, 0.0, 0.541696, 0.0, 0.0, 0.0, 1.270129]
position_covariance_type: 2
---
header: 
  seq: 21
  stamp: 
    secs: 1620837159
    nsecs: 488519968
  frame_id: "base_link"
status: 
  status: 0
  service: 1
latitude: 59.8691334
longitude: 30.3008152
altitude: 25.3249125956
position_covariance: [0.541696, 0.0, 0.0, 0.0, 0.541696, 0.0, 0.0, 0.0, 1.270129]
position_covariance_type: 2
---
header: 
  seq: 22
  stamp: 
    secs: 1620837159
    nsecs: 961640440
  frame_id: "base_link"
status: 
  status: 0
  service: 1
latitude: 59.869133
longitude: 30.3008142
altitude: 25.3449129095
position_covariance: [0.541696, 0.0, 0.0, 0.0, 0.541696, 0.0, 0.0, 0.0, 1.270129]
position_covariance_type: 2
---
header: 
  seq: 23
  stamp: 
    secs: 1620837161
    nsecs:  96592201
  frame_id: "base_link"
status: 
  status: 0
  service: 1
latitude: 59.8691323
longitude: 30.3008122
altitude: 25.3649135001
position_covariance: [0.541696, 0.0, 0.0, 0.0, 0.541696, 0.0, 0.0, 0.0, 1.270129]
position_covariance_type: 2
---
header: 
  seq: 24
  stamp: 
    secs: 1620837161
    nsecs: 358293869
  frame_id: "base_link"
status: 
  status: 0
  service: 1
latitude: 59.8691318
longitude: 30.300811
altitude: 25.3349138843
position_covariance: [0.541696, 0.0, 0.0, 0.0, 0.541696, 0.0, 0.0, 0.0, 1.270129]
position_covariance_type: 2
---
header: 
  seq: 25
  stamp: 
    secs: 1620837162
    nsecs:  15115520
  frame_id: "base_link"
status: 
  status: 0
  service: 1
latitude: 59.8691313
longitude: 30.3008099
altitude: 25.3249142519
position_covariance: [0.49984899999999993, 0.0, 0.0, 0.0, 0.49984899999999993, 0.0, 0.0, 0.0, 1.2276640000000003]
position_covariance_type: 2
---
header: 
  seq: 26
  stamp: 
    secs: 1620837162
    nsecs: 893311622
  frame_id: "base_link"
status: 
  status: 0
  service: 1
latitude: 59.8691302
longitude: 30.3008076
altitude: 25.3549150407
position_covariance: [0.48860099999999995, 0.0, 0.0, 0.0, 0.48860099999999995, 0.0, 0.0, 0.0, 1.2122009999999999]
position_covariance_type: 2
---
header: 
  seq: 27
  stamp: 
    secs: 1620837163
    nsecs: 311424211
  frame_id: "base_link"
status: 
  status: 0
  service: 1
latitude: 59.8691296
longitude: 30.3008064
altitude: 25.364915462
position_covariance: [0.48860099999999995, 0.0, 0.0, 0.0, 0.48860099999999995, 0.0, 0.0, 0.0, 1.2122009999999999]
position_covariance_type: 2
---
header: 
  seq: 28
  stamp: 
    secs: 1620837163
    nsecs: 886728488
  frame_id: "base_link"
status: 
  status: 0
  service: 1
latitude: 59.8691291
longitude: 30.3008053
altitude: 25.3649158296
position_covariance: [0.47472099999999995, 0.0, 0.0, 0.0, 0.47472099999999995, 0.0, 0.0, 0.0, 1.185921]
position_covariance_type: 2
---
header: 
  seq: 29
  stamp: 
    secs: 1620837164
    nsecs: 960338029
  frame_id: "base_link"
status: 
  status: 0
  service: 1
latitude: 59.8691281
longitude: 30.3008032
altitude: 25.3249165483
position_covariance: [0.4719690000000001, 0.0, 0.0, 0.0, 0.4719690000000001, 0.0, 0.0, 0.0, 1.1837440000000001]
position_covariance_type: 2
---
header: 
  seq: 30
  stamp: 
    secs: 1620837165
    nsecs: 377373746
  frame_id: "base_link"
status: 
  status: 0
  service: 1
latitude: 59.8691275
longitude: 30.3008022
altitude: 25.2949169365
position_covariance: [0.4719690000000001, 0.0, 0.0, 0.0, 0.4719690000000001, 0.0, 0.0, 0.0, 1.1837440000000001]
position_covariance_type: 2
---
header: 
  seq: 31
  stamp: 
    secs: 1620837166
    nsecs: 413546066
  frame_id: "base_link"
status: 
  status: 0
  service: 1
latitude: 59.8691266
longitude: 30.3008001
altitude: 25.264917618
position_covariance: [0.46785600000000005, 0.0, 0.0, 0.0, 0.46785600000000005, 0.0, 0.0, 0.0, 1.159929]
position_covariance_type: 2
---
header: 
  seq: 32
  stamp: 
    secs: 1620837166
    nsecs: 861633611
  frame_id: "base_link"
status: 
  status: 0
  service: 1
latitude: 59.8691261
longitude: 30.3007994
altitude: 25.2549179195
position_covariance: [0.46785600000000005, 0.0, 0.0, 0.0, 0.46785600000000005, 0.0, 0.0, 0.0, 1.159929]
position_covariance_type: 2
---
header: 
  seq: 33
  stamp: 
    secs: 1620837167
    nsecs: 259571619
  frame_id: "base_link"
status: 
  status: 0
  service: 1
latitude: 59.8691258
longitude: 30.3007987
altitude: 25.2549181467
position_covariance: [0.46785600000000005, 0.0, 0.0, 0.0, 0.46785600000000005, 0.0, 0.0, 0.0, 1.159929]
position_covariance_type: 2
---
header: 
  seq: 34
  stamp: 
    secs: 1620837168
    nsecs: 449019481
  frame_id: "base_link"
status: 
  status: 0
  service: 1
latitude: 59.8691249
longitude: 30.3007972
altitude: 25.274918729
position_covariance: [0.4651240000000001, 0.0, 0.0, 0.0, 0.4651240000000001, 0.0, 0.0, 0.0, 1.1534760000000002]
position_covariance_type: 2
---
header: 
  seq: 35
  stamp: 
    secs: 1620837168
    nsecs: 711061490
  frame_id: "base_link"
status: 
  status: 0
  service: 1
latitude: 59.8691243
longitude: 30.3007964
altitude: 25.2949190842
position_covariance: [0.4651240000000001, 0.0, 0.0, 0.0, 0.4651240000000001, 0.0, 0.0, 0.0, 1.1534760000000002]
position_covariance_type: 2
---
header: 
  seq: 36
  stamp: 
    secs: 1620837169
    nsecs: 285109901
  frame_id: "base_link"
status: 
  status: 0
  service: 1
latitude: 59.8691237
longitude: 30.3007955
altitude: 25.3149194559
position_covariance: [0.4651240000000001, 0.0, 0.0, 0.0, 0.4651240000000001, 0.0, 0.0, 0.0, 1.159929]
position_covariance_type: 2
---
header: 
  seq: 37
  stamp: 
    secs: 1620837170
    nsecs: 745617406
  frame_id: "base_link"
status: 
  status: 0
  service: 1
latitude: 59.8691223
longitude: 30.300793
altitude: 25.2949203893
position_covariance: [0.4637610000000001, 0.0, 0.0, 0.0, 0.4637610000000001, 0.0, 0.0, 0.0, 1.1642409999999999]
position_covariance_type: 2
---
header: 
  seq: 38
  stamp: 
    secs: 1620837171
    nsecs: 211669409
  frame_id: "base_link"
status: 
  status: 0
  service: 1
latitude: 59.8691219
longitude: 30.3007922
altitude: 25.3549206702
position_covariance: [0.4637610000000001, 0.0, 0.0, 0.0, 0.4637610000000001, 0.0, 0.0, 0.0, 1.1642409999999999]
position_covariance_type: 2
---
header: 
  seq: 39
  stamp: 
    secs: 1620837173
    nsecs: 231559652
  frame_id: "base_link"
status: 
  status: 0
  service: 1
latitude: 59.86912
longitude: 30.3007889
altitude: 25.3549219216
position_covariance: [0.45697600000000005, 0.0, 0.0, 0.0, 0.45697600000000005, 0.0, 0.0, 0.0, 1.1513289999999998]
position_covariance_type: 2
---
header: 
  seq: 40
  stamp: 
    secs: 1620837173
    nsecs: 848092666
  frame_id: "base_link"
status: 
  status: 0
  service: 1
latitude: 59.8691196
longitude: 30.3007882
altitude: 25.3749221859
position_covariance: [0.45697600000000005, 0.0, 0.0, 0.0, 0.45697600000000005, 0.0, 0.0, 0.0, 1.1513289999999998]
position_covariance_type: 2
---
header: 
  seq: 41
  stamp: 
    secs: 1620837174
    nsecs: 338085937
  frame_id: "base_link"
status: 
  status: 0
  service: 1
latitude: 59.8691193
longitude: 30.3007873
altitude: 25.3749224462
position_covariance: [0.45968400000000004, 0.0, 0.0, 0.0, 0.45968400000000004, 0.0, 0.0, 0.0, 1.1577760000000001]
position_covariance_type: 2
---
header: 
  seq: 42
  stamp: 
    secs: 1620837174
    nsecs: 683763431
  frame_id: "base_link"
status: 
  status: 0
  service: 1
latitude: 59.869119
longitude: 30.3007865
altitude: 25.3449226898
position_covariance: [0.45968400000000004, 0.0, 0.0, 0.0, 0.45968400000000004, 0.0, 0.0, 0.0, 1.1577760000000001]
position_covariance_type: 2
---
header: 
  seq: 43
  stamp: 
    secs: 1620837175
    nsecs: 299232362
  frame_id: "base_link"
status: 
  status: 0
  service: 1
latitude: 59.8691185
longitude: 30.3007854
altitude: 25.3149230574
position_covariance: [0.45968400000000004, 0.0, 0.0, 0.0, 0.45968400000000004, 0.0, 0.0, 0.0, 1.1577760000000001]
position_covariance_type: 2
---
header: 
  seq: 44
  stamp: 
    secs: 1620837176
    nsecs: 291114884
  frame_id: "base_link"
status: 
  status: 0
  service: 1
latitude: 59.8691174
longitude: 30.3007837
altitude: 25.2949237472
position_covariance: [0.4664890000000001, 0.0, 0.0, 0.0, 0.4664890000000001, 0.0, 0.0, 0.0, 1.168561]
position_covariance_type: 2
---
header: 
  seq: 45
  stamp: 
    secs: 1620837176
    nsecs: 717723309
  frame_id: "base_link"
status: 
  status: 0
  service: 1
latitude: 59.869117
longitude: 30.3007829
altitude: 25.304924028
position_covariance: [0.4664890000000001, 0.0, 0.0, 0.0, 0.4664890000000001, 0.0, 0.0, 0.0, 1.168561]
position_covariance_type: 2
---
header: 
  seq: 46
  stamp: 
    secs: 1620837177
    nsecs: 177883621
  frame_id: "base_link"
status: 
  status: 0
  service: 1
latitude: 59.8691166
longitude: 30.300782
altitude: 25.2949243254
position_covariance: [0.4664890000000001, 0.0, 0.0, 0.0, 0.4664890000000001, 0.0, 0.0, 0.0, 1.168561]
position_covariance_type: 2
---
header: 
  seq: 47
  stamp: 
    secs: 1620837177
    nsecs: 636780679
  frame_id: "base_link"
status: 
  status: 0
  service: 1
latitude: 59.8691161
longitude: 30.3007814
altitude: 25.3049246104
position_covariance: [0.4664890000000001, 0.0, 0.0, 0.0, 0.4664890000000001, 0.0, 0.0, 0.0, 1.168561]
position_covariance_type: 2
---
header: 
  seq: 48
  stamp: 
    secs: 1620837178
    nsecs: 514031147
  frame_id: "base_link"
status: 
  status: 0
  service: 1
latitude: 59.8691154
longitude: 30.3007805
altitude: 25.2849250192
position_covariance: [0.4664890000000001, 0.0, 0.0, 0.0, 0.4664890000000001, 0.0, 0.0, 0.0, 1.168561]
position_covariance_type: 2
---
header: 
  seq: 49
  stamp: 
    secs: 1620837179
    nsecs:  17059791
  frame_id: "base_link"
status: 
  status: 0
  service: 1
latitude: 59.8691149
longitude: 30.30078
altitude: 25.3049252877
position_covariance: [0.45968400000000004, 0.0, 0.0, 0.0, 0.45968400000000004, 0.0, 0.0, 0.0, 1.155625]
position_covariance_type: 2
---
header: 
  seq: 50
  stamp: 
    secs: 1620837179
    nsecs: 707578348
  frame_id: "base_link"
status: 
  status: 0
  service: 1
latitude: 59.8691145
longitude: 30.3007796
altitude: 25.3149255024
position_covariance: [0.45968400000000004, 0.0, 0.0, 0.0, 0.45968400000000004, 0.0, 0.0, 0.0, 1.155625]
position_covariance_type: 2
---
header: 
  seq: 51
  stamp: 
    secs: 1620837180
    nsecs: 307697672
  frame_id: "base_link"
status: 
  status: 0
  service: 1
latitude: 59.869114
longitude: 30.3007791
altitude: 25.2749257709
position_covariance: [0.4624000000000001, 0.0, 0.0, 0.0, 0.4624000000000001, 0.0, 0.0, 0.0, 1.1664]
position_covariance_type: 2
---
header: 
  seq: 52
  stamp: 
    secs: 1620837180
    nsecs: 657604886
  frame_id: "base_link"
status: 
  status: 0
  service: 1
latitude: 59.8691138
longitude: 30.3007786
altitude: 25.2449259278
position_covariance: [0.4624000000000001, 0.0, 0.0, 0.0, 0.4624000000000001, 0.0, 0.0, 0.0, 1.1664]
position_covariance_type: 2
---
header: 
  seq: 53
  stamp: 
    secs: 1620837181
    nsecs: 199329606
  frame_id: "base_link"
status: 
  status: 0
  service: 1
latitude: 59.8691134
longitude: 30.3007781
altitude: 25.2349261591
position_covariance: [0.4624000000000001, 0.0, 0.0, 0.0, 0.4624000000000001, 0.0, 0.0, 0.0, 1.1664]
position_covariance_type: 2
---
header: 
  seq: 54
  stamp: 
    secs: 1620837181
    nsecs: 690615712
  frame_id: "base_link"
status: 
  status: 0
  service: 1
latitude: 59.8691131
longitude: 30.3007777
altitude: 25.2349263367
position_covariance: [0.4719690000000001, 0.0, 0.0, 0.0, 0.4719690000000001, 0.0, 0.0, 0.0, 1.1837440000000001]
position_covariance_type: 2
---
header: 
  seq: 55
  stamp: 
    secs: 1620837182
    nsecs: 130063052
  frame_id: "base_link"
status: 
  status: 0
  service: 1
latitude: 59.869113
longitude: 30.3007773
altitude: 25.2349264399
position_covariance: [0.4802489999999999, 0.0, 0.0, 0.0, 0.4802489999999999, 0.0, 0.0, 0.0, 1.1968360000000002]
position_covariance_type: 2
---
header: 
  seq: 56
  stamp: 
    secs: 1620837182
    nsecs: 462494706
  frame_id: "base_link"
status: 
  status: 0
  service: 1
latitude: 59.8691129
longitude: 30.3007768
altitude: 25.2549265597
position_covariance: [0.4802489999999999, 0.0, 0.0, 0.0, 0.4802489999999999, 0.0, 0.0, 0.0, 1.1968360000000002]
position_covariance_type: 2
---
header: 
  seq: 57
  stamp: 
    secs: 1620837182
    nsecs: 950365320
  frame_id: "base_link"
status: 
  status: 0
  service: 1
latitude: 59.8691128
longitude: 30.3007761
altitude: 25.3049267126
position_covariance: [0.4802489999999999, 0.0, 0.0, 0.0, 0.4802489999999999, 0.0, 0.0, 0.0, 1.1968360000000002]
position_covariance_type: 2
---
header: 
  seq: 58
  stamp: 
    secs: 1620837183
    nsecs: 644510051
  frame_id: "base_link"
status: 
  status: 0
  service: 1
latitude: 59.8691127
longitude: 30.3007754
altitude: 25.3349268654
position_covariance: [0.49280399999999996, 0.0, 0.0, 0.0, 0.49280399999999996, 0.0, 0.0, 0.0, 1.221025]
position_covariance_type: 2
---
header: 
  seq: 59
  stamp: 
    secs: 1620837184
    nsecs: 629322093
  frame_id: "base_link"
status: 
  status: 0
  service: 1
latitude: 59.8691123
longitude: 30.3007735
altitude: 25.354927328
position_covariance: [0.49280399999999996, 0.0, 0.0, 0.0, 0.49280399999999996, 0.0, 0.0, 0.0, 1.221025]
position_covariance_type: 2
---
header: 
  seq: 60
  stamp: 
    secs: 1620837185
    nsecs:  22089103
  frame_id: "base_link"
status: 
  status: 0
  service: 1
latitude: 59.8691122
longitude: 30.3007724
altitude: 25.364927547
position_covariance: [0.49984899999999993, 0.0, 0.0, 0.0, 0.49984899999999993, 0.0, 0.0, 0.0, 1.2276640000000003]
position_covariance_type: 2
---
header: 
  seq: 61
  stamp: 
    secs: 1620837185
    nsecs: 481319505
  frame_id: "base_link"
status: 
  status: 0
  service: 1
latitude: 59.869112
longitude: 30.3007715
altitude: 25.36492777
position_covariance: [0.49984899999999993, 0.0, 0.0, 0.0, 0.49984899999999993, 0.0, 0.0, 0.0, 1.2276640000000003]
position_covariance_type: 2
---
header: 
  seq: 62
  stamp: 
    secs: 1620837186
    nsecs: 254390620
  frame_id: "base_link"
status: 
  status: 0
  service: 1
latitude: 59.8691117
longitude: 30.3007704
altitude: 25.3349280633
position_covariance: [0.5112249999999999, 0.0, 0.0, 0.0, 0.5112249999999999, 0.0, 0.0, 0.0, 1.247689]
position_covariance_type: 2
---
header: 
  seq: 63
  stamp: 
    secs: 1620837186
    nsecs: 485322564
  frame_id: "base_link"
status: 
  status: 0
  service: 1
latitude: 59.8691114
longitude: 30.3007691
altitude: 25.3149283896
position_covariance: [0.5112249999999999, 0.0, 0.0, 0.0, 0.5112249999999999, 0.0, 0.0, 0.0, 1.247689]
position_covariance_type: 2
---
header: 
  seq: 64
  stamp: 
    secs: 1620837187
    nsecs: 549313200
  frame_id: "base_link"
status: 
  status: 0
  service: 1
latitude: 59.869111
longitude: 30.3007668
altitude: 25.2349289183
position_covariance: [0.527076, 0.0, 0.0, 0.0, 0.527076, 0.0, 0.0, 0.0, 1.270129]
position_covariance_type: 2
---
header: 
  seq: 65
  stamp: 
    secs: 1620837188
    nsecs: 206298540
  frame_id: "base_link"
status: 
  status: 0
  service: 1
latitude: 59.869111
longitude: 30.3007658
altitude: 25.2549290835
position_covariance: [0.529984, 0.0, 0.0, 0.0, 0.529984, 0.0, 0.0, 0.0, 1.274641]
position_covariance_type: 2
---
header: 
  seq: 66
  stamp: 
    secs: 1620837188
    nsecs: 436486935
  frame_id: "base_link"
status: 
  status: 0
  service: 1
latitude: 59.8691109
longitude: 30.3007651
altitude: 25.2749292364
position_covariance: [0.529984, 0.0, 0.0, 0.0, 0.529984, 0.0, 0.0, 0.0, 1.274641]
position_covariance_type: 2
---
header: 
  seq: 67
  stamp: 
    secs: 1620837188
    nsecs: 896262283
  frame_id: "base_link"
status: 
  status: 0
  service: 1
latitude: 59.8691109
longitude: 30.3007643
altitude: 25.2749293686
position_covariance: [0.529984, 0.0, 0.0, 0.0, 0.529984, 0.0, 0.0, 0.0, 1.274641]
position_covariance_type: 2
---
header: 
  seq: 68
  stamp: 
    secs: 1620837190
    nsecs: 159759441
  frame_id: "base_link"
status: 
  status: 0
  service: 1
latitude: 59.8691104
longitude: 30.3007626
altitude: 25.3249298353
position_covariance: [0.535824, 0.0, 0.0, 0.0, 0.535824, 0.0, 0.0, 0.0, 1.2723839999999997]
position_covariance_type: 2
---
header: 
  seq: 69
  stamp: 
    secs: 1620837190
    nsecs: 452465655
  frame_id: "base_link"
status: 
  status: 0
  service: 1
latitude: 59.8691101
longitude: 30.3007618
altitude: 25.324930079
position_covariance: [0.535824, 0.0, 0.0, 0.0, 0.535824, 0.0, 0.0, 0.0, 1.2723839999999997]
position_covariance_type: 2
---
header: 
  seq: 70
  stamp: 
    secs: 1620837190
    nsecs: 997162991
  frame_id: "base_link"
status: 
  status: 0
  service: 1
latitude: 59.8691098
longitude: 30.300761
altitude: 25.3249303227
position_covariance: [0.5328999999999999, 0.0, 0.0, 0.0, 0.5328999999999999, 0.0, 0.0, 0.0, 1.2633760000000003]
position_covariance_type: 2
---
header: 
  seq: 71
  stamp: 
    secs: 1620837191
    nsecs: 654466822
  frame_id: "base_link"
status: 
  status: 0
  service: 1
latitude: 59.8691097
longitude: 30.3007605
altitude: 25.3249304425
position_covariance: [0.5328999999999999, 0.0, 0.0, 0.0, 0.5328999999999999, 0.0, 0.0, 0.0, 1.2633760000000003]
position_covariance_type: 2
---
header: 
  seq: 72
  stamp: 
    secs: 1620837192
    nsecs:  71152291
  frame_id: "base_link"
status: 
  status: 0
  service: 1
latitude: 59.8691094
longitude: 30.30076
altitude: 25.3449306366
position_covariance: [0.5328999999999999, 0.0, 0.0, 0.0, 0.5328999999999999, 0.0, 0.0, 0.0, 1.2633760000000003]
position_covariance_type: 2
---
header: 
  seq: 73
  stamp: 
    secs: 1620837192
    nsecs: 498805720
  frame_id: "base_link"
status: 
  status: 0
  service: 1
latitude: 59.8691092
longitude: 30.3007595
altitude: 25.3249307935
position_covariance: [0.527076, 0.0, 0.0, 0.0, 0.527076, 0.0, 0.0, 0.0, 1.2544000000000002]
position_covariance_type: 2
---
header: 
  seq: 74
  stamp: 
    secs: 1620837192
    nsecs: 937698287
  frame_id: "base_link"
status: 
  status: 0
  service: 1
latitude: 59.869109
longitude: 30.3007589
altitude: 25.334930967
position_covariance: [0.527076, 0.0, 0.0, 0.0, 0.527076, 0.0, 0.0, 0.0, 1.2544000000000002]
position_covariance_type: 2
---
header: 
  seq: 75
  stamp: 
    secs: 1620837193
    nsecs: 952188519
  frame_id: "base_link"
status: 
  status: 0
  service: 1
latitude: 59.8691086
longitude: 30.3007575
altitude: 25.344931347
position_covariance: [0.5140889999999999, 0.0, 0.0, 0.0, 0.5140889999999999, 0.0, 0.0, 0.0, 1.229881]
position_covariance_type: 2
---
header: 
  seq: 76
  stamp: 
    secs: 1620837194
    nsecs: 587038258
  frame_id: "base_link"
status: 
  status: 0
  service: 1
latitude: 59.8691084
longitude: 30.3007568
altitude: 25.344931537
position_covariance: [0.5140889999999999, 0.0, 0.0, 0.0, 0.5140889999999999, 0.0, 0.0, 0.0, 1.229881]
position_covariance_type: 2
---
header: 
  seq: 77
  stamp: 
    secs: 1620837194
    nsecs: 869917787
  frame_id: "base_link"
status: 
  status: 0
  service: 1
latitude: 59.8691082
longitude: 30.300756
altitude: 25.3349317435
position_covariance: [0.5140889999999999, 0.0, 0.0, 0.0, 0.5140889999999999, 0.0, 0.0, 0.0, 1.229881]
position_covariance_type: 2
---
header: 
  seq: 78
  stamp: 
    secs: 1620837195
    nsecs: 443475239
  frame_id: "base_link"
status: 
  status: 0
  service: 1
latitude: 59.869108
longitude: 30.3007553
altitude: 25.3249319335
position_covariance: [0.5041, 0.0, 0.0, 0.0, 0.5041, 0.0, 0.0, 0.0, 1.2122009999999999]
position_covariance_type: 2
---
header: 
  seq: 79
  stamp: 
    secs: 1620837195
    nsecs: 770902420
  frame_id: "base_link"
status: 
  status: 0
  service: 1
latitude: 59.8691077
longitude: 30.3007543
altitude: 25.3149322102
position_covariance: [0.5041, 0.0, 0.0, 0.0, 0.5041, 0.0, 0.0, 0.0, 1.2122009999999999]
position_covariance_type: 2
---
header: 
  seq: 80
  stamp: 
    secs: 1620837196
    nsecs: 280554595
  frame_id: "base_link"
status: 
  status: 0
  service: 1
latitude: 59.8691075
longitude: 30.3007532
altitude: 25.3349324663
position_covariance: [0.5041, 0.0, 0.0, 0.0, 0.5041, 0.0, 0.0, 0.0, 1.2122009999999999]
position_covariance_type: 2
---
header: 
  seq: 81
  stamp: 
    secs: 1620837196
    nsecs: 741329527
  frame_id: "base_link"
status: 
  status: 0
  service: 1
latitude: 59.8691073
longitude: 30.300752
altitude: 25.3549327389
position_covariance: [0.5041, 0.0, 0.0, 0.0, 0.5041, 0.0, 0.0, 0.0, 1.2122009999999999]
position_covariance_type: 2
---
header: 
  seq: 82
  stamp: 
    secs: 1620837197
    nsecs: 806975292
  frame_id: "base_link"
status: 
  status: 0
  service: 1
latitude: 59.869107
longitude: 30.3007509
altitude: 25.3349330322
position_covariance: [0.49984899999999993, 0.0, 0.0, 0.0, 0.49984899999999993, 0.0, 0.0, 0.0, 1.199025]
position_covariance_type: 2
---
header: 
  seq: 83
  stamp: 
    secs: 1620837198
    nsecs: 337154229
  frame_id: "base_link"
status: 
  status: 0
  service: 1
latitude: 59.8691068
longitude: 30.3007506
altitude: 25.3249331561
position_covariance: [0.49984899999999993, 0.0, 0.0, 0.0, 0.49984899999999993, 0.0, 0.0, 0.0, 1.199025]
position_covariance_type: 2
---
header: 
  seq: 84
  stamp: 
    secs: 1620837198
    nsecs: 953122216
  frame_id: "base_link"
status: 
  status: 0
  service: 1
latitude: 59.8691068
longitude: 30.3007505
altitude: 25.3249331726
position_covariance: [0.49561599999999995, 0.0, 0.0, 0.0, 0.49561599999999995, 0.0, 0.0, 0.0, 1.1881000000000002]
position_covariance_type: 2
---
header: 
  seq: 85
  stamp: 
    secs: 1620837199
    nsecs: 761753698
  frame_id: "base_link"
status: 
  status: 0
  service: 1
latitude: 59.8691063
longitude: 30.3007502
altitude: 25.374933408
position_covariance: [0.49561599999999995, 0.0, 0.0, 0.0, 0.49561599999999995, 0.0, 0.0, 0.0, 1.1881000000000002]
position_covariance_type: 2
---
header: 
  seq: 86
  stamp: 
    secs: 1620837200
    nsecs: 389963157
  frame_id: "base_link"
status: 
  status: 0
  service: 1
latitude: 59.869106
longitude: 30.3007501
altitude: 25.374933536
position_covariance: [0.48999999999999994, 0.0, 0.0, 0.0, 0.48999999999999994, 0.0, 0.0, 0.0, 1.170724]
position_covariance_type: 2
---
header: 
  seq: 87
  stamp: 
    secs: 1620837200
    nsecs: 806716755
  frame_id: "base_link"
status: 
  status: 0
  service: 1
latitude: 59.8691057
longitude: 30.3007499
altitude: 25.4049336806
position_covariance: [0.48999999999999994, 0.0, 0.0, 0.0, 0.48999999999999994, 0.0, 0.0, 0.0, 1.170724]
position_covariance_type: 2
---
header: 
  seq: 88
  stamp: 
    secs: 1620837201
    nsecs: 768543736
  frame_id: "base_link"
status: 
  status: 0
  service: 1
latitude: 59.869105
longitude: 30.3007491
altitude: 25.3949340729
position_covariance: [0.4872039999999999, 0.0, 0.0, 0.0, 0.4872039999999999, 0.0, 0.0, 0.0, 1.1577760000000001]
position_covariance_type: 2
---
header: 
  seq: 89
  stamp: 
    secs: 1620837202
    nsecs: 226546863
  frame_id: "base_link"
status: 
  status: 0
  service: 1
latitude: 59.8691046
longitude: 30.3007484
altitude: 25.3849343372
position_covariance: [0.4872039999999999, 0.0, 0.0, 0.0, 0.4872039999999999, 0.0, 0.0, 0.0, 1.1577760000000001]
position_covariance_type: 2
---
header: 
  seq: 90
  stamp: 
    secs: 1620837203
    nsecs: 103378824
  frame_id: "base_link"
status: 
  status: 0
  service: 1
latitude: 59.8691043
longitude: 30.3007478
altitude: 25.3549345479
position_covariance: [0.4872039999999999, 0.0, 0.0, 0.0, 0.4872039999999999, 0.0, 0.0, 0.0, 1.1577760000000001]
position_covariance_type: 2
---
header: 
  seq: 91
  stamp: 
    secs: 1620837204
    nsecs: 328585936
  frame_id: "base_link"
status: 
  status: 0
  service: 1
latitude: 59.8691031
longitude: 30.3007451
altitude: 25.34493544
position_covariance: [0.4872039999999999, 0.0, 0.0, 0.0, 0.4872039999999999, 0.0, 0.0, 0.0, 1.1577760000000001]
position_covariance_type: 2
---
header: 
  seq: 92
  stamp: 
    secs: 1620837204
    nsecs: 987880513
  frame_id: "base_link"
status: 
  status: 0
  service: 1
latitude: 59.8691029
longitude: 30.300745
altitude: 25.3249355309
position_covariance: [0.4872039999999999, 0.0, 0.0, 0.0, 0.4872039999999999, 0.0, 0.0, 0.0, 1.1577760000000001]
position_covariance_type: 2
---
header: 
  seq: 93
  stamp: 
    secs: 1620837205
    nsecs: 633631052
  frame_id: "base_link"
status: 
  status: 0
  service: 1
latitude: 59.8691027
longitude: 30.3007447
altitude: 25.3049356548
position_covariance: [0.48441599999999996, 0.0, 0.0, 0.0, 0.48441599999999996, 0.0, 0.0, 0.0, 1.1491840000000002]
position_covariance_type: 2
---
header: 
  seq: 94
  stamp: 
    secs: 1620837205
    nsecs: 822351716
  frame_id: "base_link"
status: 
  status: 0
  service: 1
latitude: 59.8691026
longitude: 30.3007442
altitude: 25.2649357745
position_covariance: [0.48441599999999996, 0.0, 0.0, 0.0, 0.48441599999999996, 0.0, 0.0, 0.0, 1.1491840000000002]
position_covariance_type: 2
---
header: 
  seq: 95
  stamp: 
    secs: 1620837206
    nsecs: 282485083
  frame_id: "base_link"
status: 
  status: 0
  service: 1
latitude: 59.8691026
longitude: 30.3007438
altitude: 25.2849358406
position_covariance: [0.48441599999999996, 0.0, 0.0, 0.0, 0.48441599999999996, 0.0, 0.0, 0.0, 1.1491840000000002]
position_covariance_type: 2
---
header: 
  seq: 96
  stamp: 
    secs: 1620837206
    nsecs: 826173065
  frame_id: "base_link"
status: 
  status: 0
  service: 1
latitude: 59.8691024
longitude: 30.3007431
altitude: 25.3249360306
position_covariance: [0.48441599999999996, 0.0, 0.0, 0.0, 0.48441599999999996, 0.0, 0.0, 0.0, 1.1491840000000002]
position_covariance_type: 2
---
header: 
  seq: 97
  stamp: 
    secs: 1620837207
    nsecs: 705016329
  frame_id: "base_link"
status: 
  status: 0
  service: 1
latitude: 59.8691021
longitude: 30.3007411
altitude: 25.3649364726
position_covariance: [0.47748099999999993, 0.0, 0.0, 0.0, 0.47748099999999993, 0.0, 0.0, 0.0, 1.140624]
position_covariance_type: 2
---
header: 
  seq: 98
  stamp: 
    secs: 1620837208
    nsecs: 240265803
  frame_id: "base_link"
status: 
  status: 0
  service: 1
latitude: 59.8691019
longitude: 30.3007398
altitude: 25.3749367617
position_covariance: [0.47748099999999993, 0.0, 0.0, 0.0, 0.47748099999999993, 0.0, 0.0, 0.0, 1.140624]
position_covariance_type: 2
---
header: 
  seq: 99
  stamp: 
    secs: 1620837208
    nsecs: 933130123
  frame_id: "base_link"
status: 
  status: 0
  service: 1
latitude: 59.8691016
longitude: 30.3007385
altitude: 25.354937088
position_covariance: [0.47748099999999993, 0.0, 0.0, 0.0, 0.47748099999999993, 0.0, 0.0, 0.0, 1.140624]
position_covariance_type: 2
---
header: 
  seq: 100
  stamp: 
    secs: 1620837209
    nsecs: 820451621
  frame_id: "base_link"
status: 
  status: 0
  service: 1
latitude: 59.8691007
longitude: 30.3007361
altitude: 25.3449378191
position_covariance: [0.47334399999999993, 0.0, 0.0, 0.0, 0.47334399999999993, 0.0, 0.0, 0.0, 1.1449]
position_covariance_type: 2
---
header: 
  seq: 101
  stamp: 
    secs: 1620837210
    nsecs: 313475702
  frame_id: "base_link"
status: 
  status: 0
  service: 1
latitude: 59.8691004
longitude: 30.3007355
altitude: 25.3449380297
position_covariance: [0.46922500000000006, 0.0, 0.0, 0.0, 0.46922500000000006, 0.0, 0.0, 0.0, 1.1449]
position_covariance_type: 2
---
header: 
  seq: 102
  stamp: 
    secs: 1620837211
    nsecs: 350544176
  frame_id: "base_link"
status: 
  status: 0
  service: 1
latitude: 59.8691002
longitude: 30.3007353
altitude: 25.3349381371
position_covariance: [0.45562500000000006, 0.0, 0.0, 0.0, 0.45562500000000006, 0.0, 0.0, 0.0, 1.1151360000000001]
position_covariance_type: 2
---
header: 
  seq: 103
  stamp: 
    secs: 1620837211
    nsecs: 549124317
  frame_id: "base_link"
status: 
  status: 0
  service: 1
latitude: 59.8691002
longitude: 30.3007357
altitude: 25.334938071
position_covariance: [0.45562500000000006, 0.0, 0.0, 0.0, 0.45562500000000006, 0.0, 0.0, 0.0, 1.1151360000000001]
position_covariance_type: 2
---
header: 
  seq: 104
  stamp: 
    secs: 1620837212
    nsecs:  41508418
  frame_id: "base_link"
status: 
  status: 0
  service: 1
latitude: 59.8691
longitude: 30.3007355
altitude: 25.3549381784
position_covariance: [0.45562500000000006, 0.0, 0.0, 0.0, 0.45562500000000006, 0.0, 0.0, 0.0, 1.1151360000000001]
position_covariance_type: 2
---
header: 
  seq: 105
  stamp: 
    secs: 1620837212
    nsecs: 699239418
  frame_id: "base_link"
status: 
  status: 0
  service: 1
latitude: 59.8690997
longitude: 30.3007349
altitude: 25.364938389
position_covariance: [0.438244, 0.0, 0.0, 0.0, 0.438244, 0.0, 0.0, 0.0, 1.077444]
position_covariance_type: 2
---
header: 
  seq: 106
  stamp: 
    secs: 1620837213
    nsecs: 691594261
  frame_id: "base_link"
status: 
  status: 0
  service: 1
latitude: 59.8690995
longitude: 30.3007341
altitude: 25.3349385955
position_covariance: [0.43560000000000004, 0.0, 0.0, 0.0, 0.43560000000000004, 0.0, 0.0, 0.0, 1.069156]
position_covariance_type: 2
---
header: 
  seq: 107
  stamp: 
    secs: 1620837214
    nsecs: 194364272
  frame_id: "base_link"
status: 
  status: 0
  service: 1
latitude: 59.8690992
longitude: 30.3007334
altitude: 25.3349388227
position_covariance: [0.43560000000000004, 0.0, 0.0, 0.0, 0.43560000000000004, 0.0, 0.0, 0.0, 1.069156]
position_covariance_type: 2
---
header: 
  seq: 108
  stamp: 
    secs: 1620837215
    nsecs: 346368832
  frame_id: "base_link"
status: 
  status: 0
  service: 1
latitude: 59.8690978
longitude: 30.3007299
altitude: 25.3649399213
position_covariance: [0.42510400000000004, 0.0, 0.0, 0.0, 0.42510400000000004, 0.0, 0.0, 0.0, 1.056784]
position_covariance_type: 2
---
header: 
  seq: 109
  stamp: 
    secs: 1620837215
    nsecs: 599235971
  frame_id: "base_link"
status: 
  status: 0
  service: 1
latitude: 59.8690969
longitude: 30.3007277
altitude: 25.3649406193
position_covariance: [0.42510400000000004, 0.0, 0.0, 0.0, 0.42510400000000004, 0.0, 0.0, 0.0, 1.056784]
position_covariance_type: 2
---
header: 
  seq: 110
  stamp: 
    secs: 1620837216
    nsecs: 222815915
  frame_id: "base_link"
status: 
  status: 0
  service: 1
latitude: 59.869096
longitude: 30.3007257
altitude: 25.3749412842
position_covariance: [0.42510400000000004, 0.0, 0.0, 0.0, 0.42510400000000004, 0.0, 0.0, 0.0, 1.056784]
position_covariance_type: 2
---
header: 
  seq: 111
  stamp: 
    secs: 1620837216
    nsecs: 630252445
  frame_id: "base_link"
status: 
  status: 0
  service: 1
latitude: 59.8690954
longitude: 30.3007239
altitude: 25.3549418046
position_covariance: [0.4096, 0.0, 0.0, 0.0, 0.4096, 0.0, 0.0, 0.0, 1.0712249999999999]
position_covariance_type: 2
---
header: 
  seq: 112
  stamp: 
    secs: 1620837217
    nsecs: 296494255
  frame_id: "base_link"
status: 
  status: 0
  service: 1
latitude: 59.8690947
longitude: 30.3007225
altitude: 25.3849422961
position_covariance: [0.393129, 0.0, 0.0, 0.0, 0.393129, 0.0, 0.0, 0.0, 1.0609]
position_covariance_type: 2
---
header: 
  seq: 113
  stamp: 
    secs: 1620837217
    nsecs: 640636172
  frame_id: "base_link"
status: 
  status: 0
  service: 1
latitude: 59.8690941
longitude: 30.3007214
altitude: 25.3849427009
position_covariance: [0.393129, 0.0, 0.0, 0.0, 0.393129, 0.0, 0.0, 0.0, 1.0609]
position_covariance_type: 2
---
header: 
  seq: 114
  stamp: 
    secs: 1620837218
    nsecs: 291345087
  frame_id: "base_link"
status: 
  status: 0
  service: 1
latitude: 59.8690938
longitude: 30.3007207
altitude: 25.404942928
position_covariance: [0.393129, 0.0, 0.0, 0.0, 0.393129, 0.0, 0.0, 0.0, 1.0609]
position_covariance_type: 2
---
header: 
  seq: 115
  stamp: 
    secs: 1620837218
    nsecs: 983439719
  frame_id: "base_link"
status: 
  status: 0
  service: 1
latitude: 59.8690937
longitude: 30.3007205
altitude: 25.4349429982
position_covariance: [0.393129, 0.0, 0.0, 0.0, 0.393129, 0.0, 0.0, 0.0, 1.0609]
position_covariance_type: 2
---
header: 
  seq: 116
  stamp: 
    secs: 1620837219
    nsecs: 715495656
  frame_id: "base_link"
status: 
  status: 0
  service: 1
latitude: 59.8690933
longitude: 30.3007204
altitude: 25.4449431634
position_covariance: [0.34928099999999995, 0.0, 0.0, 0.0, 0.34928099999999995, 0.0, 0.0, 0.0, 0.9409]
position_covariance_type: 2
---
header: 
  seq: 117
  stamp: 
    secs: 1620837220
    nsecs: 176736568
  frame_id: "base_link"
status: 
  status: 0
  service: 1
latitude: 59.8690931
longitude: 30.3007203
altitude: 25.4249432543
position_covariance: [0.3364, 0.0, 0.0, 0.0, 0.3364, 0.0, 0.0, 0.0, 0.9063039999999999]
position_covariance_type: 2
---
header: 
  seq: 118
  stamp: 
    secs: 1620837221
    nsecs: 744925918
  frame_id: "base_link"
status: 
  status: 0
  service: 1
latitude: 59.8690923
longitude: 30.3007201
altitude: 25.3849435846
position_covariance: [0.3203559999999999, 0.0, 0.0, 0.0, 0.3203559999999999, 0.0, 0.0, 0.0, 0.8611840000000001]
position_covariance_type: 2
---
header: 
  seq: 119
  stamp: 
    secs: 1620837222
    nsecs: 132444364
  frame_id: "base_link"
status: 
  status: 0
  service: 1
latitude: 59.8690919
longitude: 30.3007201
altitude: 25.4049437333
position_covariance: [0.3203559999999999, 0.0, 0.0, 0.0, 0.3203559999999999, 0.0, 0.0, 0.0, 0.8611840000000001]
position_covariance_type: 2
---
header: 
  seq: 120
  stamp: 
    secs: 1620837222
    nsecs: 622896039
  frame_id: "base_link"
status: 
  status: 0
  service: 1
latitude: 59.8690914
longitude: 30.3007198
altitude: 25.4149439687
position_covariance: [0.3203559999999999, 0.0, 0.0, 0.0, 0.3203559999999999, 0.0, 0.0, 0.0, 0.8611840000000001]
position_covariance_type: 2
---
header: 
  seq: 121
  stamp: 
    secs: 1620837224
    nsecs: 275375606
  frame_id: "base_link"
status: 
  status: 0
  service: 1
latitude: 59.8690904
longitude: 30.3007192
altitude: 25.4549444395
position_covariance: [0.30250000000000005, 0.0, 0.0, 0.0, 0.30250000000000005, 0.0, 0.0, 0.0, 0.8082010000000001]
position_covariance_type: 2
---
header: 
  seq: 122
  stamp: 
    secs: 1620837225
    nsecs: 238218115
  frame_id: "base_link"
status: 
  status: 0
  service: 1
latitude: 59.86909
longitude: 30.3007187
altitude: 25.4449446708
position_covariance: [0.294849, 0.0, 0.0, 0.0, 0.294849, 0.0, 0.0, 0.0, 0.788544]
position_covariance_type: 2
---
header: 
  seq: 123
  stamp: 
    secs: 1620837225
    nsecs: 384816623
  frame_id: "base_link"
status: 
  status: 0
  service: 1
latitude: 59.86909
longitude: 30.3007184
altitude: 25.4449447203
position_covariance: [0.294849, 0.0, 0.0, 0.0, 0.294849, 0.0, 0.0, 0.0, 0.788544]
position_covariance_type: 2
---
header: 
  seq: 124
  stamp: 
    secs: 1620837225
    nsecs: 958997563
  frame_id: "base_link"
status: 
  status: 0
  service: 1
latitude: 59.8690899
longitude: 30.3007179
altitude: 25.4249448401
position_covariance: [0.294849, 0.0, 0.0, 0.0, 0.294849, 0.0, 0.0, 0.0, 0.788544]
position_covariance_type: 2
---
header: 
  seq: 125
  stamp: 
    secs: 1620837226
    nsecs: 617242413
  frame_id: "base_link"
status: 
  status: 0
  service: 1
latitude: 59.8690898
longitude: 30.3007174
altitude: 25.3849449599
position_covariance: [0.29052100000000003, 0.0, 0.0, 0.0, 0.29052100000000003, 0.0, 0.0, 0.0, 0.779689]
position_covariance_type: 2
---
header: 
  seq: 126
  stamp: 
    secs: 1620837227
    nsecs: 340674071
  frame_id: "base_link"
status: 
  status: 0
  service: 1
latitude: 59.8690896
longitude: 30.3007163
altitude: 25.394945216
position_covariance: [0.29052100000000003, 0.0, 0.0, 0.0, 0.29052100000000003, 0.0, 0.0, 0.0, 0.779689]
position_covariance_type: 2
---
header: 
  seq: 127
  stamp: 
    secs: 1620837227
    nsecs: 956417384
  frame_id: "base_link"
status: 
  status: 0
  service: 1
latitude: 59.8690895
longitude: 30.3007154
altitude: 25.3949454018
position_covariance: [0.29052100000000003, 0.0, 0.0, 0.0, 0.29052100000000003, 0.0, 0.0, 0.0, 0.779689]
position_covariance_type: 2
---
header: 
  seq: 128
  stamp: 
    secs: 1620837229
    nsecs: 294646892
  frame_id: "base_link"
status: 
  status: 0
  service: 1
latitude: 59.8690897
longitude: 30.3007134
altitude: 25.354945658
position_covariance: [0.2916, 0.0, 0.0, 0.0, 0.2916, 0.0, 0.0, 0.0, 0.7516889999999999]
position_covariance_type: 2
---
header: 
  seq: 129
  stamp: 
    secs: 1620837229
    nsecs: 837509959
  frame_id: "base_link"
status: 
  status: 0
  service: 1
latitude: 59.8690897
longitude: 30.3007129
altitude: 25.3749457406
position_covariance: [0.293764, 0.0, 0.0, 0.0, 0.293764, 0.0, 0.0, 0.0, 0.748225]
position_covariance_type: 2
---
header: 
  seq: 130
  stamp: 
    secs: 1620837230
    nsecs: 758050766
  frame_id: "base_link"
status: 
  status: 0
  service: 1
latitude: 59.8690896
longitude: 30.300712
altitude: 25.3649459265
position_covariance: [0.29702500000000004, 0.0, 0.0, 0.0, 0.29702500000000004, 0.0, 0.0, 0.0, 0.7464959999999999]
position_covariance_type: 2
---
header: 
  seq: 131
  stamp: 
    secs: 1620837231
    nsecs: 249888122
  frame_id: "base_link"
status: 
  status: 0
  service: 1
latitude: 59.8690895
longitude: 30.3007114
altitude: 25.3649460628
position_covariance: [0.29702500000000004, 0.0, 0.0, 0.0, 0.29702500000000004, 0.0, 0.0, 0.0, 0.7464959999999999]
position_covariance_type: 2
---
header: 
  seq: 132
  stamp: 
    secs: 1620837231
    nsecs: 907316435
  frame_id: "base_link"
status: 
  status: 0
  service: 1
latitude: 59.8690893
longitude: 30.3007105
altitude: 25.3449462858
position_covariance: [0.29702500000000004, 0.0, 0.0, 0.0, 0.29702500000000004, 0.0, 0.0, 0.0, 0.7464959999999999]
position_covariance_type: 2
---
header: 
  seq: 133
  stamp: 
    secs: 1620837232
    nsecs: 783586540
  frame_id: "base_link"
status: 
  status: 0
  service: 1
latitude: 59.869089
longitude: 30.3007091
altitude: 25.3549466286
position_covariance: [0.29702500000000004, 0.0, 0.0, 0.0, 0.29702500000000004, 0.0, 0.0, 0.0, 0.7464959999999999]
position_covariance_type: 2
---
header: 
  seq: 134
  stamp: 
    secs: 1620837233
    nsecs: 242412870
  frame_id: "base_link"
status: 
  status: 0
  service: 1
latitude: 59.869089
longitude: 30.3007085
altitude: 25.3749467277
position_covariance: [0.29702500000000004, 0.0, 0.0, 0.0, 0.29702500000000004, 0.0, 0.0, 0.0, 0.7464959999999999]
position_covariance_type: 2
---
header: 
  seq: 135
  stamp: 
    secs: 1620837233
    nsecs: 862997094
  frame_id: "base_link"
status: 
  status: 0
  service: 1
latitude: 59.8690891
longitude: 30.3007079
altitude: 25.3949467897
position_covariance: [0.29702500000000004, 0.0, 0.0, 0.0, 0.29702500000000004, 0.0, 0.0, 0.0, 0.7464959999999999]
position_covariance_type: 2
---
header: 
  seq: 136
  stamp: 
    secs: 1620837234
    nsecs: 695739762
  frame_id: "base_link"
status: 
  status: 0
  service: 1
latitude: 59.8690894
longitude: 30.3007067
altitude: 25.4549468765
position_covariance: [0.29702500000000004, 0.0, 0.0, 0.0, 0.29702500000000004, 0.0, 0.0, 0.0, 0.719104]
position_covariance_type: 2
---
header: 
  seq: 137
  stamp: 
    secs: 1620837235
    nsecs: 352989726
  frame_id: "base_link"
status: 
  status: 0
  service: 1
latitude: 59.8690896
longitude: 30.3007063
altitude: 25.4449468682
position_covariance: [0.29702500000000004, 0.0, 0.0, 0.0, 0.29702500000000004, 0.0, 0.0, 0.0, 0.719104]
position_covariance_type: 2
---
header: 
  seq: 138
  stamp: 
    secs: 1620837236
    nsecs: 763367489
  frame_id: "base_link"
status: 
  status: 0
  service: 1
latitude: 59.8690896
longitude: 30.3007038
altitude: 25.3249472813
position_covariance: [0.30250000000000005, 0.0, 0.0, 0.0, 0.30250000000000005, 0.0, 0.0, 0.0, 0.737881]
position_covariance_type: 2
---
header: 
  seq: 139
  stamp: 
    secs: 1620837237
    nsecs: 377706101
  frame_id: "base_link"
status: 
  status: 0
  service: 1
latitude: 59.8690898
longitude: 30.3007027
altitude: 25.3649473887
position_covariance: [0.28944400000000003, 0.0, 0.0, 0.0, 0.28944400000000003, 0.0, 0.0, 0.0, 0.734449]
position_covariance_type: 2
---
header: 
  seq: 140
  stamp: 
    secs: 1620837237
    nsecs: 911985497
  frame_id: "base_link"
status: 
  status: 0
  service: 1
latitude: 59.8690899
longitude: 30.3007016
altitude: 25.3849475333
position_covariance: [0.281961, 0.0, 0.0, 0.0, 0.281961, 0.0, 0.0, 0.0, 0.741321]
position_covariance_type: 2
---
header: 
  seq: 141
  stamp: 
    secs: 1620837238
    nsecs: 798354543
  frame_id: "base_link"
status: 
  status: 0
  service: 1
latitude: 59.8690902
longitude: 30.3006995
altitude: 25.4049477687
position_covariance: [0.281961, 0.0, 0.0, 0.0, 0.281961, 0.0, 0.0, 0.0, 0.741321]
position_covariance_type: 2
---
header: 
  seq: 142
  stamp: 
    secs: 1620837239
    nsecs: 259918961
  frame_id: "base_link"
status: 
  status: 0
  service: 1
latitude: 59.8690901
longitude: 30.3006984
altitude: 25.3849479876
position_covariance: [0.281961, 0.0, 0.0, 0.0, 0.281961, 0.0, 0.0, 0.0, 0.741321]
position_covariance_type: 2
---
header: 
  seq: 143
  stamp: 
    secs: 1620837239
    nsecs: 970528753
  frame_id: "base_link"
status: 
  status: 0
  service: 1
latitude: 59.8690902
longitude: 30.3006976
altitude: 25.3849480826
position_covariance: [0.281961, 0.0, 0.0, 0.0, 0.281961, 0.0, 0.0, 0.0, 0.741321]
position_covariance_type: 2
---
header: 
  seq: 144
  stamp: 
    secs: 1620837240
    nsecs: 870260458
  frame_id: "base_link"
status: 
  status: 0
  service: 1
latitude: 59.8690903
longitude: 30.3006966
altitude: 25.4049482107
position_covariance: [0.28090000000000004, 0.0, 0.0, 0.0, 0.28090000000000004, 0.0, 0.0, 0.0, 0.7430439999999999]
position_covariance_type: 2
---
header: 
  seq: 145
  stamp: 
    secs: 1620837241
    nsecs: 329751390
  frame_id: "base_link"
status: 
  status: 0
  service: 1
latitude: 59.8690902
longitude: 30.3006958
altitude: 25.42494838
position_covariance: [0.28090000000000004, 0.0, 0.0, 0.0, 0.28090000000000004, 0.0, 0.0, 0.0, 0.7430439999999999]
position_covariance_type: 2
---
header: 
  seq: 146
  stamp: 
    secs: 1620837241
    nsecs: 790507674
  frame_id: "base_link"
status: 
  status: 0
  service: 1
latitude: 59.8690905
longitude: 30.3006955
altitude: 25.404948318
position_covariance: [0.272484, 0.0, 0.0, 0.0, 0.272484, 0.0, 0.0, 0.0, 0.727609]
position_covariance_type: 2
---
header: 
  seq: 147
  stamp: 
    secs: 1620837242
    nsecs: 281294200
  frame_id: "base_link"
status: 
  status: 0
  service: 1
latitude: 59.8690917
longitude: 30.3006961
altitude: 25.4049477729
position_covariance: [0.272484, 0.0, 0.0, 0.0, 0.272484, 0.0, 0.0, 0.0, 0.727609]
position_covariance_type: 2
---
header: 
  seq: 148
  stamp: 
    secs: 1620837242
    nsecs: 742604729
  frame_id: "base_link"
status: 
  status: 0
  service: 1
latitude: 59.8690918
longitude: 30.3006985
altitude: 25.4049473392
position_covariance: [0.272484, 0.0, 0.0, 0.0, 0.272484, 0.0, 0.0, 0.0, 0.727609]
position_covariance_type: 2
---
header: 
  seq: 149
  stamp: 
    secs: 1620837243
    nsecs: 402101578
  frame_id: "base_link"
status: 
  status: 0
  service: 1
latitude: 59.8690903
longitude: 30.3007013
altitude: 25.4049474342
position_covariance: [0.272484, 0.0, 0.0, 0.0, 0.272484, 0.0, 0.0, 0.0, 0.727609]
position_covariance_type: 2
---
header: 
  seq: 150
  stamp: 
    secs: 1620837243
    nsecs: 779014270
  frame_id: "base_link"
status: 
  status: 0
  service: 1
latitude: 59.8690888
longitude: 30.3007038
altitude: 25.3749475786
position_covariance: [0.272484, 0.0, 0.0, 0.0, 0.272484, 0.0, 0.0, 0.0, 0.727609]
position_covariance_type: 2
---
header: 
  seq: 151
  stamp: 
    secs: 1620837244
    nsecs: 280515202
  frame_id: "base_link"
status: 
  status: 0
  service: 1
latitude: 59.8690871
longitude: 30.3007051
altitude: 25.3649479957
position_covariance: [0.293764, 0.0, 0.0, 0.0, 0.293764, 0.0, 0.0, 0.0, 0.763876]
position_covariance_type: 2
---
header: 
  seq: 152
  stamp: 
    secs: 1620837244
    nsecs: 783766128
  frame_id: "base_link"
status: 
  status: 0
  service: 1
latitude: 59.869086
longitude: 30.3007062
altitude: 25.3849482227
position_covariance: [0.293764, 0.0, 0.0, 0.0, 0.293764, 0.0, 0.0, 0.0, 0.763876]
position_covariance_type: 2
---
header: 
  seq: 153
  stamp: 
    secs: 1620837245
    nsecs: 243337613
  frame_id: "base_link"
status: 
  status: 0
  service: 1
latitude: 59.8690848
longitude: 30.3007089
altitude: 25.3449482226
position_covariance: [0.293764, 0.0, 0.0, 0.0, 0.293764, 0.0, 0.0, 0.0, 0.763876]
position_covariance_type: 2
---
header: 
  seq: 154
  stamp: 
    secs: 1620837246
    nsecs: 277180908
  frame_id: "base_link"
status: 
  status: 0
  service: 1
latitude: 59.8690848
longitude: 30.3007187
altitude: 25.2849466033
position_covariance: [0.31024900000000005, 0.0, 0.0, 0.0, 0.31024900000000005, 0.0, 0.0, 0.0, 0.819025]
position_covariance_type: 2
---
header: 
  seq: 155
  stamp: 
    secs: 1620837246
    nsecs: 653449302
  frame_id: "base_link"
status: 
  status: 0
  service: 1
latitude: 59.8690859
longitude: 30.3007239
altitude: 25.2849453352
position_covariance: [0.31024900000000005, 0.0, 0.0, 0.0, 0.31024900000000005, 0.0, 0.0, 0.0, 0.819025]
position_covariance_type: 2
---
header: 
  seq: 156
  stamp: 
    secs: 1620837247
    nsecs:  80312368
  frame_id: "base_link"
status: 
  status: 0
  service: 1
latitude: 59.8690871
longitude: 30.3007286
altitude: 25.2749441126
position_covariance: [0.31024900000000005, 0.0, 0.0, 0.0, 0.31024900000000005, 0.0, 0.0, 0.0, 0.819025]
position_covariance_type: 2
---
header: 
  seq: 157
  stamp: 
    secs: 1620837247
    nsecs: 540777287
  frame_id: "base_link"
status: 
  status: 0
  service: 1
latitude: 59.8690883
longitude: 30.3007331
altitude: 25.2749429231
position_covariance: [0.31024900000000005, 0.0, 0.0, 0.0, 0.31024900000000005, 0.0, 0.0, 0.0, 0.819025]
position_covariance_type: 2
---
header: 
  seq: 158
  stamp: 
    secs: 1620837248
    nsecs: 493688362
  frame_id: "base_link"
status: 
  status: 0
  service: 1
latitude: 59.8690904
longitude: 30.3007421
altitude: 25.3349406554
position_covariance: [0.31024900000000005, 0.0, 0.0, 0.0, 0.31024900000000005, 0.0, 0.0, 0.0, 0.819025]
position_covariance_type: 2
---
header: 
  seq: 159
  stamp: 
    secs: 1620837249
    nsecs: 151965954
  frame_id: "base_link"
status: 
  status: 0
  service: 1
latitude: 59.8690912
longitude: 30.300746
altitude: 25.3249397136
position_covariance: [0.31024900000000005, 0.0, 0.0, 0.0, 0.31024900000000005, 0.0, 0.0, 0.0, 0.819025]
position_covariance_type: 2
---
header: 
  seq: 160
  stamp: 
    secs: 1620837249
    nsecs: 752858623
  frame_id: "base_link"
status: 
  status: 0
  service: 1
latitude: 59.8690918
longitude: 30.3007493
altitude: 25.3349389453
position_covariance: [0.358801, 0.0, 0.0, 0.0, 0.358801, 0.0, 0.0, 0.0, 0.8854809999999999]
position_covariance_type: 2
---
header: 
  seq: 161
  stamp: 
    secs: 1620837250
    nsecs: 715624963
  frame_id: "base_link"
status: 
  status: 0
  service: 1
latitude: 59.8690924
longitude: 30.3007558
altitude: 25.3549376482
position_covariance: [0.374544, 0.0, 0.0, 0.0, 0.374544, 0.0, 0.0, 0.0, 0.9158489999999999]
position_covariance_type: 2
---
header: 
  seq: 162
  stamp: 
    secs: 1620837251
    nsecs: 216839415
  frame_id: "base_link"
status: 
  status: 0
  service: 1
latitude: 59.8690926
longitude: 30.3007586
altitude: 25.3449371111
position_covariance: [0.385641, 0.0, 0.0, 0.0, 0.385641, 0.0, 0.0, 0.0, 0.9273689999999999]
position_covariance_type: 2
---
header: 
  seq: 163
  stamp: 
    secs: 1620837252
    nsecs: 480662241
  frame_id: "base_link"
status: 
  status: 0
  service: 1
latitude: 59.8690932
longitude: 30.3007651
altitude: 25.3349358139
position_covariance: [0.40195600000000004, 0.0, 0.0, 0.0, 0.40195600000000004, 0.0, 0.0, 0.0, 0.954529]
position_covariance_type: 2
---
header: 
  seq: 164
  stamp: 
    secs: 1620837253
    nsecs:  55437941
  frame_id: "base_link"
status: 
  status: 0
  service: 1
latitude: 59.8690936
longitude: 30.3007669
altitude: 25.3749353678
position_covariance: [0.40195600000000004, 0.0, 0.0, 0.0, 0.40195600000000004, 0.0, 0.0, 0.0, 0.954529]
position_covariance_type: 2
---
header: 
  seq: 165
  stamp: 
    secs: 1620837253
    nsecs: 546408230
  frame_id: "base_link"
status: 
  status: 0
  service: 1
latitude: 59.8690939
longitude: 30.3007689
altitude: 25.3849349257
position_covariance: [0.378225, 0.0, 0.0, 0.0, 0.378225, 0.0, 0.0, 0.0, 0.9101159999999999]
position_covariance_type: 2
---
header: 
  seq: 166
  stamp: 
    secs: 1620837254
    nsecs: 575977069
  frame_id: "base_link"
status: 
  status: 0
  service: 1
latitude: 59.8690943
longitude: 30.3007718
altitude: 25.3649342978
position_covariance: [0.364816, 0.0, 0.0, 0.0, 0.364816, 0.0, 0.0, 0.0, 0.8949159999999999]
position_covariance_type: 2
---
header: 
  seq: 167
  stamp: 
    secs: 1620837255
    nsecs: 125028068
  frame_id: "base_link"
status: 
  status: 0
  service: 1
latitude: 59.8690944
longitude: 30.3007731
altitude: 25.3349340458
position_covariance: [0.364816, 0.0, 0.0, 0.0, 0.364816, 0.0, 0.0, 0.0, 0.8949159999999999]
position_covariance_type: 2
---
header: 
  seq: 168
  stamp: 
    secs: 1620837255
    nsecs: 616993949
  frame_id: "base_link"
status: 
  status: 0
  service: 1
latitude: 59.8690946
longitude: 30.3007744
altitude: 25.2949337566
position_covariance: [0.364816, 0.0, 0.0, 0.0, 0.364816, 0.0, 0.0, 0.0, 0.8949159999999999]
position_covariance_type: 2
---
header: 
  seq: 169
  stamp: 
    secs: 1620837256
    nsecs: 504221733
  frame_id: "base_link"
status: 
  status: 0
  service: 1
latitude: 59.8690954
longitude: 30.3007769
altitude: 25.3049330462
position_covariance: [0.358801, 0.0, 0.0, 0.0, 0.358801, 0.0, 0.0, 0.0, 0.8704890000000001]
position_covariance_type: 2
---
header: 
  seq: 170
  stamp: 
    secs: 1620837257
    nsecs:  77871584
  frame_id: "base_link"
status: 
  status: 0
  service: 1
latitude: 59.8690958
longitude: 30.3007778
altitude: 25.3149327488
position_covariance: [0.358801, 0.0, 0.0, 0.0, 0.358801, 0.0, 0.0, 0.0, 0.8704890000000001]
position_covariance_type: 2
---
header: 
  seq: 171
  stamp: 
    secs: 1620837258
    nsecs: 573304844
  frame_id: "base_link"
status: 
  status: 0
  service: 1
latitude: 59.8690972
longitude: 30.3007796
altitude: 25.3649319311
position_covariance: [0.40195600000000004, 0.0, 0.0, 0.0, 0.40195600000000004, 0.0, 0.0, 0.0, 0.9254439999999999]
position_covariance_type: 2
---
header: 
  seq: 172
  stamp: 
    secs: 1620837259
    nsecs:  34818386
  frame_id: "base_link"
status: 
  status: 0
  service: 1
latitude: 59.8690978
longitude: 30.3007799
altitude: 25.3849316586
position_covariance: [0.40195600000000004, 0.0, 0.0, 0.0, 0.40195600000000004, 0.0, 0.0, 0.0, 0.9254439999999999]
position_covariance_type: 2
---
header: 
  seq: 173
  stamp: 
    secs: 1620837259
    nsecs: 525321849
  frame_id: "base_link"
status: 
  status: 0
  service: 1
latitude: 59.8690985
longitude: 30.3007806
altitude: 25.3949312828
position_covariance: [0.40195600000000004, 0.0, 0.0, 0.0, 0.40195600000000004, 0.0, 0.0, 0.0, 0.9254439999999999]
position_covariance_type: 2
---
header: 
  seq: 174
  stamp: 
    secs: 1620837260
    nsecs: 557956538
  frame_id: "base_link"
status: 
  status: 0
  service: 1
latitude: 59.8690996
longitude: 30.3007817
altitude: 25.3849306922
position_covariance: [0.43692100000000006, 0.0, 0.0, 0.0, 0.43692100000000006, 0.0, 0.0, 0.0, 0.9428409999999999]
position_covariance_type: 2
---
header: 
  seq: 175
  stamp: 
    secs: 1620837260
    nsecs: 904126485
  frame_id: "base_link"
status: 
  status: 0
  service: 1
latitude: 59.8691002
longitude: 30.3007823
altitude: 25.3949303701
position_covariance: [0.43692100000000006, 0.0, 0.0, 0.0, 0.43692100000000006, 0.0, 0.0, 0.0, 0.9428409999999999]
position_covariance_type: 2
---
header: 
  seq: 176
  stamp: 
    secs: 1620837262
    nsecs: 510913706
  frame_id: "base_link"
status: 
  status: 0
  service: 1
latitude: 59.8691019
longitude: 30.3007848
altitude: 25.3449293252
position_covariance: [0.45697600000000005, 0.0, 0.0, 0.0, 0.45697600000000005, 0.0, 0.0, 0.0, 0.9467289999999999]
position_covariance_type: 2
---
header: 
  seq: 177
  stamp: 
    secs: 1620837262
    nsecs: 971426936
  frame_id: "base_link"
status: 
  status: 0
  service: 1
latitude: 59.8691025
longitude: 30.3007855
altitude: 25.3449289866
position_covariance: [0.45697600000000005, 0.0, 0.0, 0.0, 0.45697600000000005, 0.0, 0.0, 0.0, 0.9467289999999999]
position_covariance_type: 2
---
header: 
  seq: 178
  stamp: 
    secs: 1620837263
    nsecs: 430795835
  frame_id: "base_link"
status: 
  status: 0
  service: 1
latitude: 59.8691031
longitude: 30.3007861
altitude: 25.3749286645
position_covariance: [0.45968400000000004, 0.0, 0.0, 0.0, 0.45968400000000004, 0.0, 0.0, 0.0, 0.937024]
position_covariance_type: 2
---
header: 
  seq: 179
  stamp: 
    secs: 1620837264
    nsecs: 509338959
  frame_id: "base_link"
status: 
  status: 0
  service: 1
latitude: 59.8691039
longitude: 30.3007866
altitude: 25.4249282846
position_covariance: [0.45968400000000004, 0.0, 0.0, 0.0, 0.45968400000000004, 0.0, 0.0, 0.0, 0.9292959999999999]
position_covariance_type: 2
---
header: 
  seq: 180
  stamp: 
    secs: 1620837265
    nsecs: 243371621
  frame_id: "base_link"
status: 
  status: 0
  service: 1
latitude: 59.8691042
longitude: 30.3007867
altitude: 25.4349281566
position_covariance: [0.45968400000000004, 0.0, 0.0, 0.0, 0.45968400000000004, 0.0, 0.0, 0.0, 0.9292959999999999]
position_covariance_type: 2
---
header: 
  seq: 181
  stamp: 
    secs: 1620837266
    nsecs: 658097916
  frame_id: "base_link"
status: 
  status: 0
  service: 1
latitude: 59.8691047
longitude: 30.3007871
altitude: 25.4249279047
position_covariance: [0.45427600000000007, 0.0, 0.0, 0.0, 0.45427600000000007, 0.0, 0.0, 0.0, 0.9082089999999999]
position_covariance_type: 2
---
header: 
  seq: 182
  stamp: 
    secs: 1620837266
    nsecs: 814249155
  frame_id: "base_link"
status: 
  status: 0
  service: 1
latitude: 59.8691052
longitude: 30.3007876
altitude: 25.4149276362
position_covariance: [0.45427600000000007, 0.0, 0.0, 0.0, 0.45427600000000007, 0.0, 0.0, 0.0, 0.9082089999999999]
position_covariance_type: 2
---
header: 
  seq: 183
  stamp: 
    secs: 1620837267
    nsecs: 579981116
  frame_id: "base_link"
status: 
  status: 0
  service: 1
latitude: 59.869106
longitude: 30.3007882
altitude: 25.4449272398
position_covariance: [0.45427600000000007, 0.0, 0.0, 0.0, 0.45427600000000007, 0.0, 0.0, 0.0, 0.9082089999999999]
position_covariance_type: 2
---
header: 
  seq: 184
  stamp: 
    secs: 1620837268
    nsecs: 240060880
  frame_id: "base_link"
status: 
  status: 0
  service: 1
latitude: 59.8691065
longitude: 30.3007887
altitude: 25.4749269714
position_covariance: [0.43560000000000004, 0.0, 0.0, 0.0, 0.43560000000000004, 0.0, 0.0, 0.0, 0.8817209999999999]
position_covariance_type: 2
---
header: 
  seq: 185
  stamp: 
    secs: 1620837268
    nsecs: 701880137
  frame_id: "base_link"
status: 
  status: 0
  service: 1
latitude: 59.8691069
longitude: 30.3007893
altitude: 25.4849267236
position_covariance: [0.43560000000000004, 0.0, 0.0, 0.0, 0.43560000000000004, 0.0, 0.0, 0.0, 0.8817209999999999]
position_covariance_type: 2
---
header: 
  seq: 186
  stamp: 
    secs: 1620837269
    nsecs: 163649033
  frame_id: "base_link"
status: 
  status: 0
  service: 1
latitude: 59.8691073
longitude: 30.3007898
altitude: 25.4849264923
